{
  "cities": [
    {
      "cityName": "Madrid",
      "country": "Spain",
      "emoji": "ðŸ‡ªðŸ‡¸",
      "date": "2027-07-15T08:22:53.976Z",
      "notes": "",
      "position": {
        "lat": 40.46635901755316,
        "lng": -3.7133789062500004
      },
      "id": 17806751
    },
    {
      "cityName": "Berlin",
      "country": "Germany",
      "emoji": "ðŸ‡©ðŸ‡ª",
      "date": "2027-08-12T09:24:11.863Z",
      "notes": "Amazing ðŸ˜ƒ",
      "position": {
        "lat": 52.53586782505711,
        "lng": 13.376933665713324
      },
      "id": 98443197
    },
    {
      "cityName": "Berlin",
      "country": "Germany",
      "emoji": "ðŸ‡©ðŸ‡ª",
      "date": "2027-02-12T09:24:11.863Z",
      "notes": "Amazing ðŸ˜ƒ",
      "position": {
        "lat": 52.53586782505711,
        "lng": 13.376933665713324
      },
      "id": 98999197
    },
    {
      "cityName": "Mumbai",
      "country": "India",
      "emoji": "ðŸ‡®ðŸ‡³",
      "date": "2027-03-12T09:24:11.863Z",
      "notes": "Amazing ðŸ˜ƒ",
      "position": {
        "lat": 19.07609,
        "lng": 72.877426
      },
      "id": 94443957
    },
    {
      "cityName": "Ludiente",
      "country": "Spain",
      "emoji": "ðŸ‡ªðŸ‡¸",
      "date": "2023-10-27T18:37:53.023Z",
      "notes": "scas",
      "position": {
        "lat": "40.08857859823707",
        "lng": "-0.37696838378906256"
      },
      "id": 98999200
    },
    {
      "cityName": "Castello de la Plana",
      "country": "Spain",
      "emoji": "ðŸ‡ªðŸ‡¸",
      "date": "2023-10-28T15:56:00.942Z",
      "notes": "tst",
      "position": {
        "lat": "39.984091590497",
        "lng": "-0.04051208496093751"
      },
      "id": 98999201
    },
    {
      "cityName": "Cluis",
      "country": "France",
      "emoji": "ðŸ‡«ðŸ‡·",
      "date": "2023-10-29T10:22:38.557Z",
      "notes": "nee",
      "position": {
        "lat": "46.543749602738565",
        "lng": "1.7578125000000002"
      },
      "id": 98999202
    },
    {
      "cityName": "Bierge",
      "country": "Spain",
      "emoji": "ðŸ‡ªðŸ‡¸",
      "date": "2023-10-29T10:22:26.487Z",
      "notes": "test",
      "position": {
        "lat": "42.19596877629178",
        "lng": "-0.05493164062500001"
      },
      "id": 98999203
    }
  ]
}