{
  "cities": [
    {
      "cityName": "Lisbon",
      "country": "Portugal",
      "emoji": "ðŸ‡µðŸ‡¹",
      "date": "2027-10-31T15:59:59.138Z",
      "notes": "My favorite city so far!",
      "position": {
        "lat": 38.727881642324164,
        "lng": -9.140900099907554
      },
      "id": 73930385
    },
    {
      "cityName": "Madrid",
      "country": "Spain",
      "emoji": "ðŸ‡ªðŸ‡¸",
      "date": "2027-07-15T08:22:53.976Z",
      "notes": "",
      "position": {
        "lat": 40.46635901755316,
        "lng": -3.7133789062500004
      },
      "id": 17806751
    },
    {
      "cityName": "Berlin",
      "country": "Germany",
      "emoji": "ðŸ‡©ðŸ‡ª",
      "date": "2027-08-12T09:24:11.863Z",
      "notes": "Amazing ðŸ˜ƒ",
      "position": {
        "lat": 52.53586782505711,
        "lng": 13.376933665713324
      },
      "id": 98443197
    },
    {
      "cityName": "Berlin",
      "country": "Germany",
      "emoji": "ðŸ‡©ðŸ‡ª",
      "date": "2027-02-12T09:24:11.863Z",
      "notes": "Amazing ðŸ˜ƒ",
      "position": {
        "lat": 52.53586782505711,
        "lng": 13.376933665713324
      },
      "id": 98999197
    },
    {
      "cityName": "Mumbai",
      "country": "India",
      "emoji": "ðŸ‡®ðŸ‡³",
      "date": "2027-03-12T09:24:11.863Z",
      "notes": "Amazing ðŸ˜ƒ",
      "position": {
        "lat": 19.07609,
        "lng": 72.877426
      },
      "id": 94443957
    },
    {
      "cityName": "Crozant",
      "country": "France",
      "emoji": "ðŸ‡«ðŸ‡·",
      "date": "2023-10-27T18:34:11.000Z",
      "notes": "hii",
      "position": {
        "lat": "46.37725420510028",
        "lng": "1.5820312500000002"
      },
      "id": 98999198
    },
    {
      "cityName": "la Massana",
      "country": "Andorra",
      "emoji": "ðŸ‡¦ðŸ‡©",
      "date": "2023-10-27T18:36:45.210Z",
      "notes": "test",
      "position": {
        "lat": "42.52069952914966",
        "lng": "1.483154296875"
      },
      "id": 98999199
    },
    {
      "cityName": "Ludiente",
      "country": "Spain",
      "emoji": "ðŸ‡ªðŸ‡¸",
      "date": "2023-10-27T18:37:53.023Z",
      "notes": "scas",
      "position": {
        "lat": "40.08857859823707",
        "lng": "-0.37696838378906256"
      },
      "id": 98999200
    },
    {
      "cityName": "Visiedo",
      "country": "Spain",
      "emoji": "ðŸ‡ªðŸ‡¸",
      "date": "2023-10-27T18:40:25.497Z",
      "notes": "",
      "position": {
        "lat": "40.6785551093992",
        "lng": "-1.0766601562500002"
      },
      "id": 98999201
    },
    {
      "cityName": "Chichaoua",
      "country": "Morocco",
      "emoji": "ðŸ‡²ðŸ‡¦",
      "date": "2023-10-27T18:44:47.696Z",
      "notes": "dcs",
      "position": {
        "lat": "31.42866311735861",
        "lng": "-9.052734375000002"
      },
      "id": 98999202
    },
    {
      "cityName": "Tchirozerine",
      "country": "Niger (the)",
      "emoji": "ðŸ‡³ðŸ‡ª",
      "date": "2023-10-27T18:45:03.564Z",
      "notes": "vev",
      "position": {
        "lat": "17.895114303749143",
        "lng": "9.316406250000002"
      },
      "id": 98999203
    },
    {
      "cityName": "Avanos",
      "country": "Turkiye",
      "emoji": "ðŸ‡¹ðŸ‡·",
      "date": "2023-10-27T18:45:17.324Z",
      "notes": "wev",
      "position": {
        "lat": "38.89103282648846",
        "lng": "34.82666015625001"
      },
      "id": 98999204
    },
    {
      "cityName": "Ankara",
      "country": "Turkiye",
      "emoji": "ðŸ‡¹ðŸ‡·",
      "date": "2023-10-27T18:47:51.859Z",
      "notes": "cs",
      "position": {
        "lat": "40.01078714046552",
        "lng": "33.42041015625001"
      },
      "id": 98999205
    },
    {
      "cityName": "Axintele",
      "country": "Romania",
      "emoji": "ðŸ‡·ðŸ‡´",
      "date": "2023-10-27T18:48:24.609Z",
      "notes": "d",
      "position": {
        "lat": "44.512176171071054",
        "lng": "26.806640625000004"
      },
      "id": 98999206
    },
    {
      "cityName": "Vurpar",
      "country": "Romania",
      "emoji": "ðŸ‡·ðŸ‡´",
      "date": "2023-10-27T18:49:12.388Z",
      "notes": "qdw",
      "position": {
        "lat": "45.89000815866184",
        "lng": "24.367675781250004"
      },
      "id": 98999207
    }
  ]
}